{
  "thresholds": {
    "mean_min": 11,
    "mean_max": 18,
    "gust_min": 0,
    "gust_max": 26,
    "hour_start": 8,
    "hour_end": 20,
    "offshore_arc": 50,
    "full_day_hours": 9,
    "firm_days": 7,
    "outlook_days": 14
  },
  "decide_models": [
    "gfs_seamless",
    "ukmo_seamless"
  ],
  "watch_models": [
    "ecmwf_ifs025"
  ],
  "sites": [
    {
      "name": "Sheerness",
      "lat": 51.43623753868814,
      "lon": 0.7970619372217482,
      "sea_deg": [
        0.0,
        22.5,
        45.0,
        67.5,
        90.0,
        315.0,
        337.5
      ],
      "face_deg": 25
    },
    {
      "name": "Whitstable",
      "lat": 51.34656125546958,
      "lon": 0.9683430261391845,
      "sea_deg": [
        0.0,
        22.5,
        45.0,
        67.5,
        337.5
      ],
      "face_deg": 5
    },
    {
      "name": "Deal",
      "lat": 51.20062312327557,
      "lon": 1.404978049221318,
      "sea_deg": [
        22.5,
        45.0,
        67.5,
        90.0,
        112.5,
        135.0,
        157.5,
        180.0
      ],
      "face_deg": 97
    },
    {
      "name": "Cooden",
      "lat": 50.832306734620886,
      "lon": 0.4275356391435688,
      "sea_deg": [
        90.0,
        112.5,
        135.0,
        157.5,
        180.0,
        202.5,
        225.0
      ],
      "face_deg": 163
    },
    {
      "name": "Seaford",
      "lat": 50.76953433143468,
      "lon": 0.09793233053175206,
      "sea_deg": [
        135.0,
        157.5,
        180.0,
        202.5,
        225.0,
        247.5,
        270.0
      ],
      "face_deg": 218
    },
    {
      "name": "Portland",
      "lat": 50.519059622165535,
      "lon": -2.4584858446321722,
      "sea_deg": [
        0.0,
        67.5,
        90.0,
        112.5,
        135.0,
        157.5,
        180.0,
        202.5,
        225.0,
        247.5,
        270.0,
        292.5,
        315.0,
        337.5
      ],
      "face_deg": 270
    },
    {
      "name": "Aldeburgh",
      "lat": 52.16090455031056,
      "lon": 1.605958002682562,
      "sea_deg": [
        22.5,
        45.0,
        67.5,
        90.0,
        112.5,
        135.0,
        157.5,
        180.0,
        202.5
      ],
      "face_deg": 105
    },
    {
      "name": "Shingle Street",
      "lat": 52.03549469207844,
      "lon": 1.4549989887897794,
      "sea_deg": [
        67.5,
        90.0,
        112.5,
        135.0,
        157.5,
        180.0,
        202.5
      ],
      "face_deg": 123
    }
  ]
}